{
    "Browser History": [
        {
            "page_transition": "LINK",
            "title": "Ragnarok Extreme สุดยอดเกม MMORPG ที่ดีที่สุด",
            "url": "https://ro.exe.in.th/main",
            "client_id": "dj4lRMcuNyMIxcarbh7RbQ\u003d\u003d",
            "time_usec": 1478198700592062
},
        {
            "favicon_url": "https://ro.exe.in.th/landing/images/favicon.ico",
            "page_transition": "TYPED",
            "title": "เสด็จสู่ฟากฟ้าสุราลัย พระมหากรุณาธิคุณจารึกในใจไทยชั่วกาล",
            "url": "https://ro.exe.in.th/landing/",
            "client_id": "dj4lRMcuNyMIxcarbh7RbQ\u003d\u003d",
            "time_usec": 1478198698223062
},
        {
            "favicon_url": "https://www.google.co.th/favicon.ico",
            "page_transition": "TYPED",
            "title": "แท็บใหม่",
            "url": "chrome://newtab/",
            "client_id": "dj4lRMcuNyMIxcarbh7RbQ\u003d\u003d",
            "time_usec": 1478198690785062
},
        {
            "favicon_url": "https://www.facebook.com/rsrc.php/yl/r/H3nktOa7ZMg.ico",
            "page_transition": "AUTO_BOOKMARK",
            "title": "Facebook",
            "url": "https://www.facebook.com/",
            "client_id": "dj4lRMcuNyMIxcarbh7RbQ\u003d\u003d",
            "time_usec": 1478198672299062
},
        {
            "favicon_url": "https://www.facebook.com/rsrc.php/yl/r/H3nktOa7ZMg.ico",
            "page_transition": "LINK",
            "title": "Facebook",
            "url": "https://www.facebook.com/",
            "client_id": "dj4lRMcuNyMIxcarbh7RbQ\u003d\u003d",
            "time_usec": 1478198585698007
},
        {
            "favicon_url": "https://www.facebook.com/rsrc.php/yl/r/H3nktOa7ZMg.ico",
            "page_transition": "LINK",
            "title": "Jessada Nutchachon",
            "url": "https://www.facebook.com/jessada.nutchachon?fref\u003dufi",
            "client_id": "dj4lRMcuNyMIxcarbh7RbQ\u003d\u003d",
            "time_usec": 1478198568770007
},
        {
            "favicon_url": "https://www.facebook.com/rsrc.php/yl/r/H3nktOa7ZMg.ico",
            "page_transition": "LINK",
            "title": "Facebook",
            "url": "https://www.facebook.com/",
            "client_id": "dj4lRMcuNyMIxcarbh7RbQ\u003d\u003d",
            "time_usec": 1478198413401453
},
        {
            "favicon_url": "https://www.facebook.com/rsrc.php/yl/r/H3nktOa7ZMg.ico",
            "page_transition": "AUTO_BOOKMARK",
            "title": "Facebook",
            "url": "https://www.facebook.com/",
            "client_id": "dj4lRMcuNyMIxcarbh7RbQ\u003d\u003d",
            "time_usec": 1478198407212453
},
        {
            "favicon_url": "https://www.facebook.com/rsrc.php/yl/r/H3nktOa7ZMg.ico",
            "page_transition": "AUTO_BOOKMARK",
            "title": "Facebook",
            "url": "https://www.facebook.com/",
            "client_id": "dj4lRMcuNyMIxcarbh7RbQ\u003d\u003d",
            "time_usec": 1478198375626453
},
        {
            "page_transition": "LINK",
            "title": "Ragnarok Extreme สุดยอดเกม MMORPG ที่ดีที่สุด",
            "url": "https://ro.exe.in.th/download/client",
            "client_id": "dj4lRMcuNyMIxcarbh7RbQ\u003d\u003d",
            "time_usec": 1478198362603609
},
        {
            "favicon_url": "https://activities.exe.in.th/assets/ragnarok/daily-login/animated_favicon.gif",
            "page_transition": "LINK",
            "title": "Ragnarok Online",
            "url": "https://activities.exe.in.th/ragnarok/daily-login",
            "client_id": "dj4lRMcuNyMIxcarbh7RbQ\u003d\u003d",
            "time_usec": 1478198354701609
},
        {
            "favicon_url": "https://activities.exe.in.th/assets/ragnarok/daily-login/animated_favicon.gif",
            "page_transition": "FORM_SUBMIT",
            "title": "Ragnarok Online",
            "url": "https://activities.exe.in.th/ragnarok/daily-login",
            "client_id": "dj4lRMcuNyMIxcarbh7RbQ\u003d\u003d",
            "time_usec": 1478198353069609
},
        {
            "favicon_url": "https://activities.exe.in.th/assets/ragnarok/daily-login/animated_favicon.gif",
            "page_transition": "LINK",
            "title": "Ragnarok Online",
            "url": "https://activities.exe.in.th/ragnarok/daily-login",
            "client_id": "dj4lRMcuNyMIxcarbh7RbQ\u003d\u003d",
            "time_usec": 1478198342075609
},
        {
            "favicon_url": "https://activities.exe.in.th/assets/ragnarok/daily-login/animated_favicon.gif",
            "page_transition": "LINK",
            "title": "Ragnarok Online",
            "url": "https://activities.exe.in.th/ragnarok/daily-login",
            "client_id": "dj4lRMcuNyMIxcarbh7RbQ\u003d\u003d",
            "time_usec": 1478198340345609
},
        {
            "favicon_url": "https://activities.exe.in.th/assets/ragnarok/daily-login/animated_favicon.gif",
            "page_transition": "LINK",
            "title": "Ragnarok Online",
            "url": "https://activities.exe.in.th/ragnarok/daily-login",
            "client_id": "dj4lRMcuNyMIxcarbh7RbQ\u003d\u003d",
            "time_usec": 1478198338520609
},
        {
            "favicon_url": "https://activities.exe.in.th/assets/ragnarok/daily-login/animated_favicon.gif",
            "page_transition": "FORM_SUBMIT",
            "title": "Ragnarok Online",
            "url": "https://activities.exe.in.th/ragnarok/daily-login",
            "client_id": "dj4lRMcuNyMIxcarbh7RbQ\u003d\u003d",
            "time_usec": 1478198333471609
},
        {
            "favicon_url": "https://activities.exe.in.th/assets/ragnarok/daily-login/animated_favicon.gif",
            "page_transition": "LINK",
            "title": "Ragnarok Online",
            "url": "https://activities.exe.in.th/ragnarok/daily-login",
            "client_id": "dj4lRMcuNyMIxcarbh7RbQ\u003d\u003d",
            "time_usec": 1478198323930609
},
        {
            "favicon_url": "https://activities.exe.in.th/assets/ragnarok/daily-login/animated_favicon.gif",
            "page_transition": "LINK",
            "title": "Ragnarok Online",
            "url": "https://activities.exe.in.th/ragnarok/daily-login",
            "client_id": "dj4lRMcuNyMIxcarbh7RbQ\u003d\u003d",
            "time_usec": 1478198321420609
},
        {
            "favicon_url": "https://activities.exe.in.th/assets/ragnarok/daily-login/animated_favicon.gif",
            "page_transition": "LINK",
            "title": "Ragnarok Online",
            "url": "https://activities.exe.in.th/ragnarok/daily-login",
            "client_id": "dj4lRMcuNyMIxcarbh7RbQ\u003d\u003d",
            "time_usec": 1478198311671609
},
        {
            "favicon_url": "https://activities.exe.in.th/assets/ragnarok/daily-login/animated_favicon.gif",
            "page_transition": "FORM_SUBMIT",
            "title": "Ragnarok Online",
            "url": "https://activities.exe.in.th/ragnarok/daily-login",
            "client_id": "dj4lRMcuNyMIxcarbh7RbQ\u003d\u003d",
            "time_usec": 1478198305987632
},
        {
            "favicon_url": "https://activities.exe.in.th/assets/ragnarok/daily-login/animated_favicon.gif",
            "page_transition": "LINK",
            "title": "Ragnarok Online",
            "url": "https://activities.exe.in.th/ragnarok/daily-login",
            "client_id": "dj4lRMcuNyMIxcarbh7RbQ\u003d\u003d",
            "time_usec": 1478198296959632
},
        {
            "favicon_url": "https://activities.exe.in.th/assets/ragnarok/daily-login/animated_favicon.gif",
            "page_transition": "LINK",
            "title": "Ragnarok Online",
            "url": "https://activities.exe.in.th/ragnarok/daily-login",
            "client_id": "dj4lRMcuNyMIxcarbh7RbQ\u003d\u003d",
            "time_usec": 1478198294831632
},
        {
            "favicon_url": "https://activities.exe.in.th/assets/ragnarok/daily-login/animated_favicon.gif",
            "page_transition": "LINK",
            "title": "Ragnarok Online",
            "url": "https://activities.exe.in.th/ragnarok/daily-login",
            "client_id": "dj4lRMcuNyMIxcarbh7RbQ\u003d\u003d",
            "time_usec": 1478198292524632
},
        {
            "favicon_url": "https://activities.exe.in.th/assets/ragnarok/daily-login/animated_favicon.gif",
            "page_transition": "FORM_SUBMIT",
            "title": "Ragnarok Online",
            "url": "https://activities.exe.in.th/ragnarok/daily-login",
            "client_id": "dj4lRMcuNyMIxcarbh7RbQ\u003d\u003d",
            "time_usec": 1478198289764632
},
        {
            "favicon_url": "https://activities.exe.in.th/assets/ragnarok/daily-login/animated_favicon.gif",
            "page_transition": "LINK",
            "title": "Ragnarok Online",
            "url": "https://activities.exe.in.th/ragnarok/daily-login",
            "client_id": "dj4lRMcuNyMIxcarbh7RbQ\u003d\u003d",
            "time_usec": 1478198277740632
},
        {
            "favicon_url": "https://activities.exe.in.th/assets/ragnarok/daily-login/animated_favicon.gif",
            "page_transition": "LINK",
            "title": "Ragnarok Online",
            "url": "https://activities.exe.in.th/ragnarok/daily-login",
            "client_id": "dj4lRMcuNyMIxcarbh7RbQ\u003d\u003d",
            "time_usec": 1478198276126632
},
        {
            "favicon_url": "https://activities.exe.in.th/assets/ragnarok/daily-login/animated_favicon.gif",
            "page_transition": "LINK",
            "title": "Ragnarok Online",
            "url": "https://activities.exe.in.th/ragnarok/daily-login",
            "client_id": "dj4lRMcuNyMIxcarbh7RbQ\u003d\u003d",
            "time_usec": 1478198274190632
},
        {
            "favicon_url": "https://activities.exe.in.th/assets/ragnarok/daily-login/animated_favicon.gif",
            "page_transition": "FORM_SUBMIT",
            "title": "Ragnarok Online",
            "url": "https://activities.exe.in.th/ragnarok/daily-login",
            "client_id": "dj4lRMcuNyMIxcarbh7RbQ\u003d\u003d",
            "time_usec": 1478198271999632
},
        {
            "favicon_url": "https://activities.exe.in.th/assets/ragnarok/daily-login/animated_favicon.gif",
            "page_transition": "LINK",
            "title": "Ragnarok Online",
            "url": "https://activities.exe.in.th/ragnarok/daily-login",
            "client_id": "dj4lRMcuNyMIxcarbh7RbQ\u003d\u003d",
            "time_usec": 1478198263157632
},
        {
            "favicon_url": "https://activities.exe.in.th/assets/ragnarok/daily-login/animated_favicon.gif",
            "page_transition": "LINK",
            "title": "Ragnarok Online",
            "url": "https://activities.exe.in.th/ragnarok/daily-login",
            "client_id": "dj4lRMcuNyMIxcarbh7RbQ\u003d\u003d",
            "time_usec": 1478198261115632
},
        {
            "favicon_url": "https://activities.exe.in.th/assets/ragnarok/daily-login/animated_favicon.gif",
            "page_transition": "LINK",
            "title": "Ragnarok Online",
            "url": "https://activities.exe.in.th/ragnarok/daily-login",
            "client_id": "dj4lRMcuNyMIxcarbh7RbQ\u003d\u003d",
            "time_usec": 1478198258254632
},
        {
            "favicon_url": "https://activities.exe.in.th/assets/ragnarok/daily-login/animated_favicon.gif",
            "page_transition": "FORM_SUBMIT",
            "title": "Ragnarok Online",
            "url": "https://activities.exe.in.th/ragnarok/daily-login",
            "client_id": "dj4lRMcuNyMIxcarbh7RbQ\u003d\u003d",
            "time_usec": 1478198256402632
},
        {
            "favicon_url": "https://activities.exe.in.th/assets/ragnarok/daily-login/animated_favicon.gif",
            "page_transition": "LINK",
            "title": "Ragnarok Online",
            "url": "https://activities.exe.in.th/ragnarok/daily-login",
            "client_id": "dj4lRMcuNyMIxcarbh7RbQ\u003d\u003d",
            "time_usec": 1478198242971679
},
        {
            "favicon_url": "https://activities.exe.in.th/assets/ragnarok/daily-login/animated_favicon.gif",
            "page_transition": "LINK",
            "title": "Ragnarok Online",
            "url": "https://activities.exe.in.th/ragnarok/daily-login",
            "client_id": "dj4lRMcuNyMIxcarbh7RbQ\u003d\u003d",
            "time_usec": 1478198241353679
},
        {
            "favicon_url": "https://activities.exe.in.th/assets/ragnarok/daily-login/animated_favicon.gif",
            "page_transition": "LINK",
            "title": "Ragnarok Online",
            "url": "https://activities.exe.in.th/ragnarok/daily-login",
            "client_id": "dj4lRMcuNyMIxcarbh7RbQ\u003d\u003d",
            "time_usec": 1478198239038679
},
        {
            "favicon_url": "https://activities.exe.in.th/assets/ragnarok/daily-login/animated_favicon.gif",
            "page_transition": "FORM_SUBMIT",
            "title": "Ragnarok Online",
            "url": "https://activities.exe.in.th/ragnarok/daily-login",
            "client_id": "dj4lRMcuNyMIxcarbh7RbQ\u003d\u003d",
            "time_usec": 1478198237278679
},
        {
            "favicon_url": "https://activities.exe.in.th/assets/ragnarok/daily-login/animated_favicon.gif",
            "page_transition": "LINK",
            "title": "Ragnarok Online",
            "url": "https://activities.exe.in.th/ragnarok/daily-login",
            "client_id": "dj4lRMcuNyMIxcarbh7RbQ\u003d\u003d",
            "time_usec": 1478198229568679
},
        {
            "favicon_url": "https://activities.exe.in.th/assets/ragnarok/daily-login/animated_favicon.gif",
            "page_transition": "LINK",
            "title": "Ragnarok Online",
            "url": "https://activities.exe.in.th/ragnarok/daily-login",
            "client_id": "dj4lRMcuNyMIxcarbh7RbQ\u003d\u003d",
            "time_usec": 1478198228009679
},
        {
            "favicon_url": "https://activities.exe.in.th/assets/ragnarok/daily-login/animated_favicon.gif",
            "page_transition": "LINK",
            "title": "Ragnarok Online",
            "url": "https://activities.exe.in.th/ragnarok/daily-login",
            "client_id": "dj4lRMcuNyMIxcarbh7RbQ\u003d\u003d",
            "time_usec": 1478198225331679
},
        {
            "favicon_url": "https://activities.exe.in.th/assets/ragnarok/daily-login/animated_favicon.gif",
            "page_transition": "FORM_SUBMIT",
            "title": "Ragnarok Online",
            "url": "https://activities.exe.in.th/ragnarok/daily-login",
            "client_id": "dj4lRMcuNyMIxcarbh7RbQ\u003d\u003d",
            "time_usec": 1478198223079679
},
        {
            "favicon_url": "https://activities.exe.in.th/assets/ragnarok/daily-login/animated_favicon.gif",
            "page_transition": "LINK",
            "title": "Ragnarok Online",
            "url": "https://activities.exe.in.th/ragnarok/daily-login",
            "client_id": "dj4lRMcuNyMIxcarbh7RbQ\u003d\u003d",
            "time_usec": 1478198215276679
},
        {
            "favicon_url": "https://activities.exe.in.th/assets/ragnarok/daily-login/animated_favicon.gif",
            "page_transition": "LINK",
            "title": "Ragnarok Online",
            "url": "https://activities.exe.in.th/ragnarok/daily-login",
            "client_id": "dj4lRMcuNyMIxcarbh7RbQ\u003d\u003d",
            "time_usec": 1478198213811679
},
        {
            "favicon_url": "https://activities.exe.in.th/assets/ragnarok/daily-login/animated_favicon.gif",
            "page_transition": "LINK",
            "title": "Ragnarok Online",
            "url": "https://activities.exe.in.th/ragnarok/daily-login",
            "client_id": "dj4lRMcuNyMIxcarbh7RbQ\u003d\u003d",
            "time_usec": 1478198211718679
},
        {
            "favicon_url": "https://activities.exe.in.th/assets/ragnarok/daily-login/animated_favicon.gif",
            "page_transition": "FORM_SUBMIT",
            "title": "Ragnarok Online",
            "url": "https://activities.exe.in.th/ragnarok/daily-login",
            "client_id": "dj4lRMcuNyMIxcarbh7RbQ\u003d\u003d",
            "time_usec": 1478198209338679
},
        {
            "favicon_url": "https://activities.exe.in.th/assets/ragnarok/daily-login/animated_favicon.gif",
            "page_transition": "LINK",
            "title": "Ragnarok Online",
            "url": "https://activities.exe.in.th/ragnarok/daily-login",
            "client_id": "dj4lRMcuNyMIxcarbh7RbQ\u003d\u003d",
            "time_usec": 1478198200592679
},
        {
            "favicon_url": "https://activities.exe.in.th/assets/ragnarok/daily-login/animated_favicon.gif",
            "page_transition": "LINK",
            "title": "Ragnarok Online",
            "url": "https://activities.exe.in.th/ragnarok/daily-login",
            "client_id": "dj4lRMcuNyMIxcarbh7RbQ\u003d\u003d",
            "time_usec": 1478198198940679
},
        {
            "favicon_url": "https://activities.exe.in.th/assets/ragnarok/daily-login/animated_favicon.gif",
            "page_transition": "LINK",
            "title": "Ragnarok Online",
            "url": "https://activities.exe.in.th/ragnarok/daily-login",
            "client_id": "dj4lRMcuNyMIxcarbh7RbQ\u003d\u003d",
            "time_usec": 1478198196723679
},
        {
            "favicon_url": "https://activities.exe.in.th/assets/ragnarok/daily-login/animated_favicon.gif",
            "page_transition": "FORM_SUBMIT",
            "title": "Ragnarok Online",
            "url": "https://activities.exe.in.th/ragnarok/daily-login",
            "client_id": "dj4lRMcuNyMIxcarbh7RbQ\u003d\u003d",
            "time_usec": 1478198193855679
},
        {
            "favicon_url": "https://activities.exe.in.th/assets/ragnarok/daily-login/animated_favicon.gif",
            "page_transition": "LINK",
            "title": "Ragnarok Online",
            "url": "https://activities.exe.in.th/ragnarok/daily-login",
            "client_id": "dj4lRMcuNyMIxcarbh7RbQ\u003d\u003d",
            "time_usec": 1478198176059750
},
        {
            "favicon_url": "https://activities.exe.in.th/assets/ragnarok/daily-login/animated_favicon.gif",
            "page_transition": "LINK",
            "title": "Ragnarok Online",
            "url": "https://activities.exe.in.th/ragnarok/daily-login",
            "client_id": "dj4lRMcuNyMIxcarbh7RbQ\u003d\u003d",
            "time_usec": 1478198173939750
},
        {
            "page_transition": "LINK",
            "title": "Ragnarok Extreme สุดยอดเกม MMORPG ที่ดีที่สุด",
            "url": "https://ro.exe.in.th/news/daily-login-nov",
            "client_id": "dj4lRMcuNyMIxcarbh7RbQ\u003d\u003d",
            "time_usec": 1478198163721750
},
        {
            "page_transition": "LINK",
            "title": "Ragnarok Extreme สุดยอดเกม MMORPG ที่ดีที่สุด",
            "url": "https://ro.exe.in.th/main",
            "client_id": "dj4lRMcuNyMIxcarbh7RbQ\u003d\u003d",
            "time_usec": 1478198142004750
},
        {
            "favicon_url": "https://ro.exe.in.th/landing/images/favicon.ico",
            "page_transition": "TYPED",
            "title": "เสด็จสู่ฟากฟ้าสุราลัย พระมหากรุณาธิคุณจารึกในใจไทยชั่วกาล",
            "url": "https://ro.exe.in.th/landing/",
            "client_id": "dj4lRMcuNyMIxcarbh7RbQ\u003d\u003d",
            "time_usec": 1478198137425750
},
        {
            "favicon_url": "https://www.google.co.th/favicon.ico",
            "page_transition": "AUTO_TOPLEVEL",
            "title": "แท็บใหม่",
            "url": "chrome://newtab/",
            "client_id": "dj4lRMcuNyMIxcarbh7RbQ\u003d\u003d",
            "time_usec": 1478198128112750
},
        {
            "favicon_url": "https://www.google.co.th/images/branding/product/ico/googleg_lodp.ico",
            "page_transition": "AUTO_BOOKMARK",
            "title": "www.google.co.th",
            "url": "https://www.google.co.th/?gws_rd\u003dssl",
            "client_id": "dj4lRMcuNyMIxcarbh7RbQ\u003d\u003d",
            "time_usec": 1478197161586742
},
        {
            "favicon_url": "https://www.google.co.th/favicon.ico",
            "page_transition": "AUTO_TOPLEVEL",
            "title": "แท็บใหม่",
            "url": "chrome://newtab/",
            "client_id": "dj4lRMcuNyMIxcarbh7RbQ\u003d\u003d",
            "time_usec": 1478197121145625
},
        {
            "favicon_url": "https://www.asus.com/favicon.ico",
            "page_transition": "LINK",
            "title": "Update BIOS - วิธีการใช้ Easy Flash สำหรับการอัพเดท  bios version Notebook",
            "url": "https://www.asus.com/th/support/faq/1008859",
            "client_id": "dj4lRMcuNyMIxcarbh7RbQ\u003d\u003d",
            "time_usec": 1477938370034188
},
        {
            "favicon_url": "https://www.google.co.th/images/branding/product/ico/googleg_lodp.ico",
            "page_transition": "LINK",
            "title": "แฟลชไบออส asus บนวินโดว์ - Google Search",
            "url": "https://www.google.co.th/search?q\u003d%E0%B8%AD%E0%B8%B1%E0%B8%9E%E0%B9%80%E0%B8%94%E0%B8%97%E0%B9%84%E0%B8%9A%E0%B8%AD%E0%B8%AD%E0%B8%AA%E0%B8%A2%E0%B8%B1%E0%B8%87%E0%B9%84%E0%B8%87\u0026oq\u003d%E0%B8%AD%E0%B8%B1%E0%B8%9E%E0%B9%80%E0%B8%94%E0%B8%97%E0%B9%84%E0%B8%9A%E0%B8%AD%E0%B8%AD%E0%B8%AA%E0%B8%A2%E0%B8%B1%E0%B8%87%E0%B9%84%E0%B8%87\u0026aqs\u003dchrome..69i57.12321j0j8\u0026sourceid\u003dchrome\u0026ie\u003dUTF-8#q\u003d%E0%B9%81%E0%B8%9F%E0%B8%A5%E0%B8%8A%E0%B9%84%E0%B8%9A%E0%B8%AD%E0%B8%AD%E0%B8%AA+asus+%E0%B8%9A%E0%B8%99%E0%B8%A7%E0%B8%B4%E0%B8%99%E0%B9%82%E0%B8%94%E0%B8%A7%E0%B9%8C",
            "client_id": "dj4lRMcuNyMIxcarbh7RbQ\u003d\u003d",
            "time_usec": 1477938361457188
},
        {
            "page_transition": "LINK",
            "title": "ftp://ftp.asus.com.tw/pub/asus/mb/flash/aflash.exe",
            "url": "ftp://ftp.asus.com.tw/pub/asus/mb/flash/aflash.exe",
            "client_id": "dj4lRMcuNyMIxcarbh7RbQ\u003d\u003d",
            "time_usec": 1477938245561576
},
        {
            "page_transition": "LINK",
            "title": "ftp://ftp.asus.com.tw/pub/asus/mb/flash/aflash.exe",
            "url": "ftp://ftp.asus.com.tw/pub/asus/mb/flash/aflash.exe",
            "client_id": "dj4lRMcuNyMIxcarbh7RbQ\u003d\u003d",
            "time_usec": 1477938237368576
},
        {
            "favicon_url": "http://www.amno.moph.go.th/favicon.ico",
            "page_transition": "LINK",
            "title": "การอัพเดตหรือ Flash BIOS ของเมนบอร์ด ASUS ตั้งแต่ต้นจนจบ",
            "url": "http://www.amno.moph.go.th/technology/Lesson-13/le13-02.htm",
            "client_id": "dj4lRMcuNyMIxcarbh7RbQ\u003d\u003d",
            "time_usec": 1477937843106778
},
        {
            "favicon_url": "http://www.amno.moph.go.th/favicon.ico",
            "page_transition": "LINK",
            "title": "วิธีการอัพเดทหรือ Flash BIOS เพื่อให้เมนบอร์ดรองรับอุปกรณ์ใหม่ ๆ",
            "url": "http://www.amno.moph.go.th/technology/Lesson-13/le13-07.htm",
            "client_id": "dj4lRMcuNyMIxcarbh7RbQ\u003d\u003d",
            "time_usec": 1477937836844778
},
        {
            "favicon_url": "https://www.google.co.th/images/branding/product/ico/googleg_lodp.ico",
            "page_transition": "RELOAD",
            "title": "อัพเดทไบออสยังไง - Google Search",
            "url": "https://www.google.co.th/search?q\u003d%E0%B8%AD%E0%B8%B1%E0%B8%9E%E0%B9%80%E0%B8%94%E0%B8%97%E0%B9%84%E0%B8%9A%E0%B8%AD%E0%B8%AD%E0%B8%AA%E0%B8%A2%E0%B8%B1%E0%B8%87%E0%B9%84%E0%B8%87\u0026oq\u003d%E0%B8%AD%E0%B8%B1%E0%B8%9E%E0%B9%80%E0%B8%94%E0%B8%97%E0%B9%84%E0%B8%9A%E0%B8%AD%E0%B8%AD%E0%B8%AA%E0%B8%A2%E0%B8%B1%E0%B8%87%E0%B9%84%E0%B8%87\u0026aqs\u003dchrome..69i57.12321j0j8\u0026sourceid\u003dchrome\u0026ie\u003dUTF-8",
            "client_id": "dj4lRMcuNyMIxcarbh7RbQ\u003d\u003d",
            "time_usec": 1477937831539778
},
        {
            "favicon_url": "https://www.facebook.com/rsrc.php/yl/r/H3nktOa7ZMg.ico",
            "page_transition": "LINK",
            "title": "Facebook",
            "url": "https://www.facebook.com/",
            "client_id": "dj4lRMcuNyMIxcarbh7RbQ\u003d\u003d",
            "time_usec": 1477931766250525
},
        {
            "favicon_url": "https://www.facebook.com/rsrc.php/yl/r/H3nktOa7ZMg.ico",
            "page_transition": "LINK",
            "title": "Facebook",
            "url": "https://www.facebook.com/",
            "client_id": "dj4lRMcuNyMIxcarbh7RbQ\u003d\u003d",
            "time_usec": 1477931763328525
},
        {
            "favicon_url": "https://www.facebook.com/rsrc.php/yl/r/H3nktOa7ZMg.ico",
            "page_transition": "LINK",
            "title": "Facebook",
            "url": "https://www.facebook.com/photo.php?fbid\u003d10208814388534781\u0026set\u003dpcb.10208813834480930\u0026type\u003d3\u0026theater",
            "client_id": "dj4lRMcuNyMIxcarbh7RbQ\u003d\u003d",
            "time_usec": 1477931760966525
},
        {
            "favicon_url": "https://www.facebook.com/rsrc.php/yl/r/H3nktOa7ZMg.ico",
            "page_transition": "LINK",
            "title": "Facebook",
            "url": "https://www.facebook.com/photo.php?fbid\u003d10208814377374502\u0026set\u003dpcb.10208813834480930\u0026type\u003d3\u0026theater",
            "client_id": "dj4lRMcuNyMIxcarbh7RbQ\u003d\u003d",
            "time_usec": 1477931760011525
},
        {
            "favicon_url": "https://www.facebook.com/rsrc.php/yl/r/H3nktOa7ZMg.ico",
            "page_transition": "LINK",
            "title": "Facebook",
            "url": "https://www.facebook.com/photo.php?fbid\u003d10208813833880915\u0026set\u003dpcb.10208813834480930\u0026type\u003d3\u0026theater",
            "client_id": "dj4lRMcuNyMIxcarbh7RbQ\u003d\u003d",
            "time_usec": 1477931758994525
},
        {
            "favicon_url": "https://www.facebook.com/rsrc.php/yl/r/H3nktOa7ZMg.ico",
            "page_transition": "LINK",
            "title": "Facebook",
            "url": "https://www.facebook.com/photo.php?fbid\u003d10208813833720911\u0026set\u003dpcb.10208813834480930\u0026type\u003d3\u0026theater",
            "client_id": "dj4lRMcuNyMIxcarbh7RbQ\u003d\u003d",
            "time_usec": 1477931757688525
},
        {
            "favicon_url": "https://www.facebook.com/rsrc.php/yl/r/H3nktOa7ZMg.ico",
            "page_transition": "LINK",
            "title": "Facebook",
            "url": "https://www.facebook.com/photo.php?fbid\u003d10208986662121513\u0026set\u003dpcb.10208813834480930\u0026type\u003d3\u0026theater",
            "client_id": "dj4lRMcuNyMIxcarbh7RbQ\u003d\u003d",
            "time_usec": 1477931756478525
},
        {
            "favicon_url": "https://www.facebook.com/rsrc.php/yl/r/H3nktOa7ZMg.ico",
            "page_transition": "LINK",
            "title": "Facebook",
            "url": "https://www.facebook.com/photo.php?fbid\u003d10208986662081512\u0026set\u003dpcb.10208813834480930\u0026type\u003d3\u0026theater",
            "client_id": "dj4lRMcuNyMIxcarbh7RbQ\u003d\u003d",
            "time_usec": 1477931755472525
},
        {
            "favicon_url": "https://www.facebook.com/rsrc.php/yl/r/H3nktOa7ZMg.ico",
            "page_transition": "LINK",
            "title": "Facebook",
            "url": "https://www.facebook.com/photo.php?fbid\u003d10208986662161514\u0026set\u003dpcb.10208813834480930\u0026type\u003d3\u0026theater",
            "client_id": "dj4lRMcuNyMIxcarbh7RbQ\u003d\u003d",
            "time_usec": 1477931754094525
},
        {
            "favicon_url": "https://www.facebook.com/rsrc.php/yl/r/H3nktOa7ZMg.ico",
            "page_transition": "LINK",
            "title": "Facebook",
            "url": "https://www.facebook.com/photo.php?fbid\u003d10208983938173416\u0026set\u003dpcb.10208813834480930\u0026type\u003d3\u0026theater",
            "client_id": "dj4lRMcuNyMIxcarbh7RbQ\u003d\u003d",
            "time_usec": 1477931748532079
},
        {
            "favicon_url": "https://www.facebook.com/rsrc.php/yl/r/H3nktOa7ZMg.ico",
            "page_transition": "LINK",
            "title": "Facebook",
            "url": "https://www.facebook.com/photo.php?fbid\u003d10208826157108988\u0026set\u003dpcb.10208813834480930\u0026type\u003d3\u0026theater",
            "client_id": "dj4lRMcuNyMIxcarbh7RbQ\u003d\u003d",
            "time_usec": 1477931747201079
},
        {
            "favicon_url": "https://www.facebook.com/rsrc.php/yl/r/H3nktOa7ZMg.ico",
            "page_transition": "LINK",
            "title": "Facebook",
            "url": "https://www.facebook.com/photo.php?fbid\u003d10208826157268992\u0026set\u003dpcb.10208813834480930\u0026type\u003d3\u0026theater",
            "client_id": "dj4lRMcuNyMIxcarbh7RbQ\u003d\u003d",
            "time_usec": 1477931745693079
},
        {
            "favicon_url": "https://www.facebook.com/rsrc.php/yl/r/H3nktOa7ZMg.ico",
            "page_transition": "LINK",
            "title": "Facebook",
            "url": "https://www.facebook.com/photo.php?fbid\u003d10208826149108788\u0026set\u003dpcb.10208813834480930\u0026type\u003d3\u0026theater",
            "client_id": "dj4lRMcuNyMIxcarbh7RbQ\u003d\u003d",
            "time_usec": 1477931743896079
},
        {
            "favicon_url": "https://www.facebook.com/rsrc.php/yl/r/H3nktOa7ZMg.ico",
            "page_transition": "LINK",
            "title": "Facebook",
            "url": "https://www.facebook.com/photo.php?fbid\u003d10208826146788730\u0026set\u003dpcb.10208813834480930\u0026type\u003d3\u0026theater",
            "client_id": "dj4lRMcuNyMIxcarbh7RbQ\u003d\u003d",
            "time_usec": 1477931741842079
},
        {
            "favicon_url": "https://www.facebook.com/rsrc.php/yl/r/H3nktOa7ZMg.ico",
            "page_transition": "LINK",
            "title": "Facebook",
            "url": "https://www.facebook.com/photo.php?fbid\u003d10208826149468797\u0026set\u003dpcb.10208813834480930\u0026type\u003d3\u0026theater",
            "client_id": "dj4lRMcuNyMIxcarbh7RbQ\u003d\u003d",
            "time_usec": 1477931739598079
},
        {
            "favicon_url": "https://www.facebook.com/rsrc.php/yl/r/H3nktOa7ZMg.ico",
            "page_transition": "LINK",
            "title": "Facebook",
            "url": "https://www.facebook.com/photo.php?fbid\u003d10208815334998442\u0026set\u003dpcb.10208813834480930\u0026type\u003d3\u0026theater",
            "client_id": "dj4lRMcuNyMIxcarbh7RbQ\u003d\u003d",
            "time_usec": 1477931738285079
},
        {
            "favicon_url": "https://www.facebook.com/rsrc.php/yl/r/H3nktOa7ZMg.ico",
            "page_transition": "LINK",
            "title": "Facebook",
            "url": "https://www.facebook.com/photo.php?fbid\u003d10208815335278449\u0026set\u003dpcb.10208813834480930\u0026type\u003d3\u0026theater",
            "client_id": "dj4lRMcuNyMIxcarbh7RbQ\u003d\u003d",
            "time_usec": 1477931736844079
},
        {
            "favicon_url": "https://www.facebook.com/rsrc.php/yl/r/H3nktOa7ZMg.ico",
            "page_transition": "LINK",
            "title": "Facebook",
            "url": "https://www.facebook.com/photo.php?fbid\u003d10208815291677359\u0026set\u003dpcb.10208813834480930\u0026type\u003d3\u0026theater",
            "client_id": "dj4lRMcuNyMIxcarbh7RbQ\u003d\u003d",
            "time_usec": 1477931733917079
},
        {
            "favicon_url": "https://www.facebook.com/rsrc.php/yl/r/H3nktOa7ZMg.ico",
            "page_transition": "LINK",
            "title": "Facebook",
            "url": "https://www.facebook.com/photo.php?fbid\u003d10208815291517355\u0026set\u003dpcb.10208813834480930\u0026type\u003d3\u0026theater",
            "client_id": "dj4lRMcuNyMIxcarbh7RbQ\u003d\u003d",
            "time_usec": 1477931732595079
},
        {
            "favicon_url": "https://www.facebook.com/rsrc.php/yl/r/H3nktOa7ZMg.ico",
            "page_transition": "LINK",
            "title": "Facebook",
            "url": "https://www.facebook.com/photo.php?fbid\u003d10208815291357351\u0026set\u003dpcb.10208813834480930\u0026type\u003d3\u0026theater",
            "client_id": "dj4lRMcuNyMIxcarbh7RbQ\u003d\u003d",
            "time_usec": 1477931730928079
},
        {
            "favicon_url": "https://www.facebook.com/rsrc.php/yl/r/H3nktOa7ZMg.ico",
            "page_transition": "LINK",
            "title": "Facebook",
            "url": "https://www.facebook.com/photo.php?fbid\u003d10208814452776387\u0026set\u003dpcb.10208813834480930\u0026type\u003d3\u0026theater",
            "client_id": "dj4lRMcuNyMIxcarbh7RbQ\u003d\u003d",
            "time_usec": 1477931727652079
},
        {
            "favicon_url": "https://www.facebook.com/rsrc.php/yl/r/H3nktOa7ZMg.ico",
            "page_transition": "LINK",
            "title": "Facebook",
            "url": "https://www.facebook.com/photo.php?fbid\u003d10208814388374777\u0026set\u003dpcb.10208813834480930\u0026type\u003d3\u0026theater",
            "client_id": "dj4lRMcuNyMIxcarbh7RbQ\u003d\u003d",
            "time_usec": 1477931726268079
},
        {
            "favicon_url": "https://www.facebook.com/rsrc.php/yl/r/H3nktOa7ZMg.ico",
            "page_transition": "LINK",
            "title": "Facebook",
            "url": "https://www.facebook.com/photo.php?fbid\u003d10208814388534781\u0026set\u003dpcb.10208813834480930\u0026type\u003d3\u0026theater",
            "client_id": "dj4lRMcuNyMIxcarbh7RbQ\u003d\u003d",
            "time_usec": 1477931724305079
},
        {
            "favicon_url": "https://www.facebook.com/rsrc.php/yl/r/H3nktOa7ZMg.ico",
            "page_transition": "LINK",
            "title": "Facebook",
            "url": "https://www.facebook.com/photo.php?fbid\u003d10208814377374502\u0026set\u003dpcb.10208813834480930\u0026type\u003d3\u0026theater",
            "client_id": "dj4lRMcuNyMIxcarbh7RbQ\u003d\u003d",
            "time_usec": 1477931722076079
},
        {
            "favicon_url": "https://www.facebook.com/rsrc.php/yl/r/H3nktOa7ZMg.ico",
            "page_transition": "LINK",
            "title": "Facebook",
            "url": "https://www.facebook.com/photo.php?fbid\u003d10208813833880915\u0026set\u003dpcb.10208813834480930\u0026type\u003d3\u0026theater",
            "client_id": "dj4lRMcuNyMIxcarbh7RbQ\u003d\u003d",
            "time_usec": 1477931717000079
},
        {
            "favicon_url": "https://www.facebook.com/rsrc.php/yl/r/H3nktOa7ZMg.ico",
            "page_transition": "LINK",
            "title": "Facebook",
            "url": "https://www.facebook.com/photo.php?fbid\u003d10208813833720911\u0026set\u003dpcb.10208813834480930\u0026type\u003d3\u0026theater",
            "client_id": "dj4lRMcuNyMIxcarbh7RbQ\u003d\u003d",
            "time_usec": 1477931713929079
},
        {
            "favicon_url": "https://www.facebook.com/rsrc.php/yl/r/H3nktOa7ZMg.ico",
            "page_transition": "LINK",
            "title": "Facebook",
            "url": "https://www.facebook.com/",
            "client_id": "dj4lRMcuNyMIxcarbh7RbQ\u003d\u003d",
            "time_usec": 1477931676500647
},
        {
            "favicon_url": "https://www.facebook.com/rsrc.php/yl/r/H3nktOa7ZMg.ico",
            "page_transition": "LINK",
            "title": "Facebook",
            "url": "https://www.facebook.com/photo.php?fbid\u003d10209036226520592\u0026set\u003dp.10209036226520592\u0026type\u003d3\u0026theater",
            "client_id": "dj4lRMcuNyMIxcarbh7RbQ\u003d\u003d",
            "time_usec": 1477931671175647
},
        {
            "favicon_url": "https://www.facebook.com/rsrc.php/yl/r/H3nktOa7ZMg.ico",
            "page_transition": "LINK",
            "title": "Facebook",
            "url": "https://www.facebook.com/",
            "client_id": "dj4lRMcuNyMIxcarbh7RbQ\u003d\u003d",
            "time_usec": 1477931655010647
},
        {
            "favicon_url": "https://www.facebook.com/rsrc.php/yl/r/H3nktOa7ZMg.ico",
            "page_transition": "LINK",
            "title": "Facebook",
            "url": "https://www.facebook.com/photo.php?fbid\u003d10208813833880915\u0026set\u003dpcb.10208813834480930\u0026type\u003d3\u0026theater",
            "client_id": "dj4lRMcuNyMIxcarbh7RbQ\u003d\u003d",
            "time_usec": 1477931650272647
},
        {
            "favicon_url": "https://www.facebook.com/rsrc.php/yl/r/H3nktOa7ZMg.ico",
            "page_transition": "LINK",
            "title": "Facebook",
            "url": "https://www.facebook.com/",
            "client_id": "dj4lRMcuNyMIxcarbh7RbQ\u003d\u003d",
            "time_usec": 1477931494323365
},
        {
            "favicon_url": "https://www.facebook.com/rsrc.php/yl/r/H3nktOa7ZMg.ico",
            "page_transition": "AUTO_BOOKMARK",
            "title": "Facebook",
            "url": "https://www.facebook.com/",
            "client_id": "dj4lRMcuNyMIxcarbh7RbQ\u003d\u003d",
            "time_usec": 1477931240725602
},
        {
            "page_transition": "LINK",
            "title": "Ragnarok Extreme สุดยอดเกม MMORPG ที่ดีที่สุด",
            "url": "https://ro.exe.in.th/download/client",
            "client_id": "dj4lRMcuNyMIxcarbh7RbQ\u003d\u003d",
            "time_usec": 1477931205872954
},
        {
            "page_transition": "LINK",
            "title": "Ragnarok Extreme สุดยอดเกม MMORPG ที่ดีที่สุด",
            "url": "https://ro.exe.in.th/main",
            "client_id": "dj4lRMcuNyMIxcarbh7RbQ\u003d\u003d",
            "time_usec": 1477931186815954
},
        {
            "favicon_url": "https://www.google.co.th/images/branding/product/ico/googleg_lodp.ico",
            "page_transition": "GENERATED",
            "title": "ragnarok - Google Search",
            "url": "https://www.google.co.th/webhp?sourceid\u003dchrome-instant\u0026ion\u003d1\u0026espv\u003d2\u0026ie\u003dUTF-8#q\u003dragnarok",
            "client_id": "dj4lRMcuNyMIxcarbh7RbQ\u003d\u003d",
            "time_usec": 1477931182612954
},
        {
            "favicon_url": "https://www.google.co.th/favicon.ico",
            "page_transition": "AUTO_TOPLEVEL",
            "title": "แท็บใหม่",
            "url": "chrome://newtab/",
            "client_id": "dj4lRMcuNyMIxcarbh7RbQ\u003d\u003d",
            "time_usec": 1477931154118954
},
        {
            "favicon_url": "https://www.facebook.com/rsrc.php/yl/r/H3nktOa7ZMg.ico",
            "page_transition": "AUTO_BOOKMARK",
            "title": "(1) Facebook",
            "url": "https://www.facebook.com/",
            "client_id": "dj4lRMcuNyMIxcarbh7RbQ\u003d\u003d",
            "time_usec": 1477931135555092
},
        {
            "favicon_url": "https://www.facebook.com/rsrc.php/yl/r/H3nktOa7ZMg.ico",
            "page_transition": "AUTO_BOOKMARK",
            "title": "Facebook",
            "url": "https://www.facebook.com/",
            "client_id": "dj4lRMcuNyMIxcarbh7RbQ\u003d\u003d",
            "time_usec": 1477931132203092
},
        {
            "favicon_url": "https://www.google.co.th/favicon.ico",
            "page_transition": "AUTO_TOPLEVEL",
            "title": "แท็บใหม่",
            "url": "chrome://newtab/",
            "client_id": "dj4lRMcuNyMIxcarbh7RbQ\u003d\u003d",
            "time_usec": 1477931128610092
},
        {
            "favicon_url": "https://activities.exe.in.th/assets/ragnarok/daily-login/animated_favicon.gif",
            "page_transition": "LINK",
            "title": "Ragnarok Online",
            "url": "https://activities.exe.in.th/ragnarok/daily-login",
            "client_id": "dj4lRMcuNyMIxcarbh7RbQ\u003d\u003d",
            "time_usec": 1477931118210942
},
        {
            "favicon_url": "https://activities.exe.in.th/assets/ragnarok/daily-login/animated_favicon.gif",
            "page_transition": "LINK",
            "title": "Ragnarok Online",
            "url": "https://activities.exe.in.th/ragnarok/daily-login",
            "client_id": "dj4lRMcuNyMIxcarbh7RbQ\u003d\u003d",
            "time_usec": 1477931112541942
},
        {
            "favicon_url": "https://activities.exe.in.th/assets/ragnarok/daily-login/animated_favicon.gif",
            "page_transition": "LINK",
            "title": "Ragnarok Online",
            "url": "https://activities.exe.in.th/ragnarok/daily-login",
            "client_id": "dj4lRMcuNyMIxcarbh7RbQ\u003d\u003d",
            "time_usec": 1477931110928942
},
        {
            "favicon_url": "https://activities.exe.in.th/assets/ragnarok/daily-login/animated_favicon.gif",
            "page_transition": "LINK",
            "title": "Ragnarok Online",
            "url": "https://activities.exe.in.th/ragnarok/daily-login",
            "client_id": "dj4lRMcuNyMIxcarbh7RbQ\u003d\u003d",
            "time_usec": 1477931105738942
},
        {
            "favicon_url": "https://activities.exe.in.th/assets/ragnarok/daily-login/animated_favicon.gif",
            "page_transition": "LINK",
            "title": "Ragnarok Online",
            "url": "https://activities.exe.in.th/ragnarok/daily-login",
            "client_id": "dj4lRMcuNyMIxcarbh7RbQ\u003d\u003d",
            "time_usec": 1477931103969942
},
        {
            "favicon_url": "https://activities.exe.in.th/assets/ragnarok/daily-login/animated_favicon.gif",
            "page_transition": "LINK",
            "title": "Ragnarok Online",
            "url": "https://activities.exe.in.th/ragnarok/daily-login",
            "client_id": "dj4lRMcuNyMIxcarbh7RbQ\u003d\u003d",
            "time_usec": 1477931094362942
},
        {
            "favicon_url": "https://activities.exe.in.th/assets/ragnarok/daily-login/animated_favicon.gif",
            "page_transition": "LINK",
            "title": "Ragnarok Online",
            "url": "https://activities.exe.in.th/ragnarok/daily-login",
            "client_id": "dj4lRMcuNyMIxcarbh7RbQ\u003d\u003d",
            "time_usec": 1477931092968942
},
        {
            "favicon_url": "https://www.facebook.com/rsrc.php/yl/r/H3nktOa7ZMg.ico",
            "page_transition": "LINK",
            "title": "โพสต์ไปที่ Facebook",
            "url": "https://www.facebook.com/v2.7/dialog/share?app_id\u003d1074038852670937\u0026display\u003dpopup\u0026e2e\u003d%7B%7D\u0026href\u003dhttps%3A%2F%2Factivities.exe.in.th%2Fragnarok%2Fdaily-login\u0026locale\u003den_US\u0026mobile_iframe\u003dfalse\u0026next\u003dhttps%3A%2F%2Fstaticxx.facebook.com%2Fconnect%2Fxd_arbiter%2Fr%2FfTmIQU3LxvB.js%3Fversion%3D42%23cb%3Df21291b0ead4cb8%26domain%3Dactivities.exe.in.th%26origin%3Dhttps%253A%252F%252Factivities.exe.in.th%252Ff384891b7e78568%26relation%3Dopener%26frame%3Df25f9d51cc65a4%26result%3D%2522xxRESULTTOKENxx%2522\u0026sdk\u003djoey\u0026version\u003dv2.7",
            "client_id": "dj4lRMcuNyMIxcarbh7RbQ\u003d\u003d",
            "time_usec": 1477931086202942
},
        {
            "favicon_url": "https://activities.exe.in.th/assets/ragnarok/daily-login/animated_favicon.gif",
            "page_transition": "LINK",
            "title": "Ragnarok Online",
            "url": "https://activities.exe.in.th/ragnarok/daily-login",
            "client_id": "dj4lRMcuNyMIxcarbh7RbQ\u003d\u003d",
            "time_usec": 1477931083641942
},
        {
            "favicon_url": "https://activities.exe.in.th/assets/ragnarok/daily-login/animated_favicon.gif",
            "page_transition": "FORM_SUBMIT",
            "title": "Ragnarok Online",
            "url": "https://activities.exe.in.th/ragnarok/daily-login",
            "client_id": "dj4lRMcuNyMIxcarbh7RbQ\u003d\u003d",
            "time_usec": 1477931078658942
},
        {
            "favicon_url": "https://activities.exe.in.th/assets/ragnarok/daily-login/animated_favicon.gif",
            "page_transition": "LINK",
            "title": "Ragnarok Online",
            "url": "https://activities.exe.in.th/ragnarok/daily-login",
            "client_id": "dj4lRMcuNyMIxcarbh7RbQ\u003d\u003d",
            "time_usec": 1477931069720360
},
        {
            "favicon_url": "https://activities.exe.in.th/assets/ragnarok/daily-login/animated_favicon.gif",
            "page_transition": "LINK",
            "title": "Ragnarok Online",
            "url": "https://activities.exe.in.th/ragnarok/daily-login",
            "client_id": "dj4lRMcuNyMIxcarbh7RbQ\u003d\u003d",
            "time_usec": 1477931065186360
},
        {
            "favicon_url": "https://activities.exe.in.th/assets/ragnarok/daily-login/animated_favicon.gif",
            "page_transition": "LINK",
            "title": "Ragnarok Online",
            "url": "https://activities.exe.in.th/ragnarok/daily-login",
            "client_id": "dj4lRMcuNyMIxcarbh7RbQ\u003d\u003d",
            "time_usec": 1477931063544360
},
        {
            "favicon_url": "https://activities.exe.in.th/assets/ragnarok/daily-login/animated_favicon.gif",
            "page_transition": "LINK",
            "title": "Ragnarok Online",
            "url": "https://activities.exe.in.th/ragnarok/daily-login",
            "client_id": "dj4lRMcuNyMIxcarbh7RbQ\u003d\u003d",
            "time_usec": 1477931058440360
},
        {
            "favicon_url": "https://activities.exe.in.th/assets/ragnarok/daily-login/animated_favicon.gif",
            "page_transition": "LINK",
            "title": "Ragnarok Online",
            "url": "https://activities.exe.in.th/ragnarok/daily-login",
            "client_id": "dj4lRMcuNyMIxcarbh7RbQ\u003d\u003d",
            "time_usec": 1477931056889360
},
        {
            "favicon_url": "https://activities.exe.in.th/assets/ragnarok/daily-login/animated_favicon.gif",
            "page_transition": "LINK",
            "title": "Ragnarok Online",
            "url": "https://activities.exe.in.th/ragnarok/daily-login",
            "client_id": "dj4lRMcuNyMIxcarbh7RbQ\u003d\u003d",
            "time_usec": 1477931047089360
},
        {
            "favicon_url": "https://activities.exe.in.th/assets/ragnarok/daily-login/animated_favicon.gif",
            "page_transition": "LINK",
            "title": "Ragnarok Online",
            "url": "https://activities.exe.in.th/ragnarok/daily-login",
            "client_id": "dj4lRMcuNyMIxcarbh7RbQ\u003d\u003d",
            "time_usec": 1477931045675360
},
        {
            "favicon_url": "https://www.facebook.com/rsrc.php/yl/r/H3nktOa7ZMg.ico",
            "page_transition": "LINK",
            "title": "โพสต์ไปที่ Facebook",
            "url": "https://www.facebook.com/v2.7/dialog/share?app_id\u003d1074038852670937\u0026display\u003dpopup\u0026e2e\u003d%7B%7D\u0026href\u003dhttps%3A%2F%2Factivities.exe.in.th%2Fragnarok%2Fdaily-login\u0026locale\u003den_US\u0026mobile_iframe\u003dfalse\u0026next\u003dhttps%3A%2F%2Fstaticxx.facebook.com%2Fconnect%2Fxd_arbiter%2Fr%2FfTmIQU3LxvB.js%3Fversion%3D42%23cb%3Df151a7de97ce24c%26domain%3Dactivities.exe.in.th%26origin%3Dhttps%253A%252F%252Factivities.exe.in.th%252Ff1f3a23f4f8c4a4%26relation%3Dopener%26frame%3Dff374beb123994%26result%3D%2522xxRESULTTOKENxx%2522\u0026sdk\u003djoey\u0026version\u003dv2.7",
            "client_id": "dj4lRMcuNyMIxcarbh7RbQ\u003d\u003d",
            "time_usec": 1477931038369360
},
        {
            "favicon_url": "https://activities.exe.in.th/assets/ragnarok/daily-login/animated_favicon.gif",
            "page_transition": "LINK",
            "title": "Ragnarok Online",
            "url": "https://activities.exe.in.th/ragnarok/daily-login",
            "client_id": "dj4lRMcuNyMIxcarbh7RbQ\u003d\u003d",
            "time_usec": 1477931034628360
},
        {
            "favicon_url": "https://activities.exe.in.th/assets/ragnarok/daily-login/animated_favicon.gif",
            "page_transition": "FORM_SUBMIT",
            "title": "Ragnarok Online",
            "url": "https://activities.exe.in.th/ragnarok/daily-login",
            "client_id": "dj4lRMcuNyMIxcarbh7RbQ\u003d\u003d",
            "time_usec": 1477931032248360
},
        {
            "favicon_url": "https://activities.exe.in.th/assets/ragnarok/daily-login/animated_favicon.gif",
            "page_transition": "LINK",
            "title": "Ragnarok Online",
            "url": "https://activities.exe.in.th/ragnarok/daily-login",
            "client_id": "dj4lRMcuNyMIxcarbh7RbQ\u003d\u003d",
            "time_usec": 1477931025310360
},
        {
            "favicon_url": "https://activities.exe.in.th/assets/ragnarok/daily-login/animated_favicon.gif",
            "page_transition": "LINK",
            "title": "Ragnarok Online",
            "url": "https://activities.exe.in.th/ragnarok/daily-login",
            "client_id": "dj4lRMcuNyMIxcarbh7RbQ\u003d\u003d",
            "time_usec": 1477931021017360
},
        {
            "favicon_url": "https://activities.exe.in.th/assets/ragnarok/daily-login/animated_favicon.gif",
            "page_transition": "LINK",
            "title": "Ragnarok Online",
            "url": "https://activities.exe.in.th/ragnarok/daily-login",
            "client_id": "dj4lRMcuNyMIxcarbh7RbQ\u003d\u003d",
            "time_usec": 1477931019295360
},
        {
            "favicon_url": "https://activities.exe.in.th/assets/ragnarok/daily-login/animated_favicon.gif",
            "page_transition": "LINK",
            "title": "Ragnarok Online",
            "url": "https://activities.exe.in.th/ragnarok/daily-login",
            "client_id": "dj4lRMcuNyMIxcarbh7RbQ\u003d\u003d",
            "time_usec": 1477931013073360
},
        {
            "favicon_url": "https://activities.exe.in.th/assets/ragnarok/daily-login/animated_favicon.gif",
            "page_transition": "LINK",
            "title": "Ragnarok Online",
            "url": "https://activities.exe.in.th/ragnarok/daily-login",
            "client_id": "dj4lRMcuNyMIxcarbh7RbQ\u003d\u003d",
            "time_usec": 1477931011526360
},
        {
            "favicon_url": "https://activities.exe.in.th/assets/ragnarok/daily-login/animated_favicon.gif",
            "page_transition": "LINK",
            "title": "Ragnarok Online",
            "url": "https://activities.exe.in.th/ragnarok/daily-login",
            "client_id": "dj4lRMcuNyMIxcarbh7RbQ\u003d\u003d",
            "time_usec": 1477931006399997
},
        {
            "favicon_url": "https://activities.exe.in.th/assets/ragnarok/daily-login/animated_favicon.gif",
            "page_transition": "LINK",
            "title": "Ragnarok Online",
            "url": "https://activities.exe.in.th/ragnarok/daily-login",
            "client_id": "dj4lRMcuNyMIxcarbh7RbQ\u003d\u003d",
            "time_usec": 1477931004351997
},
        {
            "favicon_url": "https://www.facebook.com/rsrc.php/yl/r/H3nktOa7ZMg.ico",
            "page_transition": "LINK",
            "title": "โพสต์ไปที่ Facebook",
            "url": "https://www.facebook.com/v2.7/dialog/share?app_id\u003d1074038852670937\u0026display\u003dpopup\u0026e2e\u003d%7B%7D\u0026href\u003dhttps%3A%2F%2Factivities.exe.in.th%2Fragnarok%2Fdaily-login\u0026locale\u003den_US\u0026mobile_iframe\u003dfalse\u0026next\u003dhttps%3A%2F%2Fstaticxx.facebook.com%2Fconnect%2Fxd_arbiter%2Fr%2FfTmIQU3LxvB.js%3Fversion%3D42%23cb%3Df30489b1e0ee3e%26domain%3Dactivities.exe.in.th%26origin%3Dhttps%253A%252F%252Factivities.exe.in.th%252Ff961872ec4a0dc%26relation%3Dopener%26frame%3Df1c6168a7721b74%26result%3D%2522xxRESULTTOKENxx%2522\u0026sdk\u003djoey\u0026version\u003dv2.7",
            "client_id": "dj4lRMcuNyMIxcarbh7RbQ\u003d\u003d",
            "time_usec": 1477930992141997
},
        {
            "favicon_url": "https://activities.exe.in.th/assets/ragnarok/daily-login/animated_favicon.gif",
            "page_transition": "LINK",
            "title": "Ragnarok Online",
            "url": "https://activities.exe.in.th/ragnarok/daily-login",
            "client_id": "dj4lRMcuNyMIxcarbh7RbQ\u003d\u003d",
            "time_usec": 1477930989663997
},
        {
            "favicon_url": "https://activities.exe.in.th/assets/ragnarok/daily-login/animated_favicon.gif",
            "page_transition": "FORM_SUBMIT",
            "title": "Ragnarok Online",
            "url": "https://activities.exe.in.th/ragnarok/daily-login",
            "client_id": "dj4lRMcuNyMIxcarbh7RbQ\u003d\u003d",
            "time_usec": 1477930987273997
},
        {
            "favicon_url": "https://activities.exe.in.th/assets/ragnarok/daily-login/animated_favicon.gif",
            "page_transition": "LINK",
            "title": "Ragnarok Online",
            "url": "https://activities.exe.in.th/ragnarok/daily-login",
            "client_id": "dj4lRMcuNyMIxcarbh7RbQ\u003d\u003d",
            "time_usec": 1477930977218997
},
        {
            "favicon_url": "https://activities.exe.in.th/assets/ragnarok/daily-login/animated_favicon.gif",
            "page_transition": "LINK",
            "title": "Ragnarok Online",
            "url": "https://activities.exe.in.th/ragnarok/daily-login",
            "client_id": "dj4lRMcuNyMIxcarbh7RbQ\u003d\u003d",
            "time_usec": 1477930972427997
},
        {
            "favicon_url": "https://activities.exe.in.th/assets/ragnarok/daily-login/animated_favicon.gif",
            "page_transition": "LINK",
            "title": "Ragnarok Online",
            "url": "https://activities.exe.in.th/ragnarok/daily-login",
            "client_id": "dj4lRMcuNyMIxcarbh7RbQ\u003d\u003d",
            "time_usec": 1477930970842997
},
        {
            "favicon_url": "https://activities.exe.in.th/assets/ragnarok/daily-login/animated_favicon.gif",
            "page_transition": "LINK",
            "title": "Ragnarok Online",
            "url": "https://activities.exe.in.th/ragnarok/daily-login",
            "client_id": "dj4lRMcuNyMIxcarbh7RbQ\u003d\u003d",
            "time_usec": 1477930966167997
},
        {
            "favicon_url": "https://activities.exe.in.th/assets/ragnarok/daily-login/animated_favicon.gif",
            "page_transition": "LINK",
            "title": "Ragnarok Online",
            "url": "https://activities.exe.in.th/ragnarok/daily-login",
            "client_id": "dj4lRMcuNyMIxcarbh7RbQ\u003d\u003d",
            "time_usec": 1477930964609997
},
        {
            "favicon_url": "https://activities.exe.in.th/assets/ragnarok/daily-login/animated_favicon.gif",
            "page_transition": "LINK",
            "title": "Ragnarok Online",
            "url": "https://activities.exe.in.th/ragnarok/daily-login",
            "client_id": "dj4lRMcuNyMIxcarbh7RbQ\u003d\u003d",
            "time_usec": 1477930959392997
},
        {
            "favicon_url": "https://activities.exe.in.th/assets/ragnarok/daily-login/animated_favicon.gif",
            "page_transition": "LINK",
            "title": "Ragnarok Online",
            "url": "https://activities.exe.in.th/ragnarok/daily-login",
            "client_id": "dj4lRMcuNyMIxcarbh7RbQ\u003d\u003d",
            "time_usec": 1477930957556997
},
        {
            "favicon_url": "https://www.facebook.com/rsrc.php/yl/r/H3nktOa7ZMg.ico",
            "page_transition": "LINK",
            "title": "โพสต์ไปที่ Facebook",
            "url": "https://www.facebook.com/v2.7/dialog/share?app_id\u003d1074038852670937\u0026display\u003dpopup\u0026e2e\u003d%7B%7D\u0026href\u003dhttps%3A%2F%2Factivities.exe.in.th%2Fragnarok%2Fdaily-login\u0026locale\u003den_US\u0026mobile_iframe\u003dfalse\u0026next\u003dhttps%3A%2F%2Fstaticxx.facebook.com%2Fconnect%2Fxd_arbiter%2Fr%2FfTmIQU3LxvB.js%3Fversion%3D42%23cb%3Df3dc75e80502f1%26domain%3Dactivities.exe.in.th%26origin%3Dhttps%253A%252F%252Factivities.exe.in.th%252Ffe7a5961c6e17%26relation%3Dopener%26frame%3Dfab81f2d6343a8%26result%3D%2522xxRESULTTOKENxx%2522\u0026sdk\u003djoey\u0026version\u003dv2.7",
            "client_id": "dj4lRMcuNyMIxcarbh7RbQ\u003d\u003d",
            "time_usec": 1477930949350380
},
        {
            "favicon_url": "https://activities.exe.in.th/assets/ragnarok/daily-login/animated_favicon.gif",
            "page_transition": "LINK",
            "title": "Ragnarok Online",
            "url": "https://activities.exe.in.th/ragnarok/daily-login",
            "client_id": "dj4lRMcuNyMIxcarbh7RbQ\u003d\u003d",
            "time_usec": 1477930938829380
},
        {
            "favicon_url": "https://activities.exe.in.th/assets/ragnarok/daily-login/animated_favicon.gif",
            "page_transition": "FORM_SUBMIT",
            "title": "Ragnarok Online",
            "url": "https://activities.exe.in.th/ragnarok/daily-login",
            "client_id": "dj4lRMcuNyMIxcarbh7RbQ\u003d\u003d",
            "time_usec": 1477930936045380
},
        {
            "favicon_url": "https://activities.exe.in.th/assets/ragnarok/daily-login/animated_favicon.gif",
            "page_transition": "LINK",
            "title": "Ragnarok Online",
            "url": "https://activities.exe.in.th/ragnarok/daily-login",
            "client_id": "dj4lRMcuNyMIxcarbh7RbQ\u003d\u003d",
            "time_usec": 1477930927891380
},
        {
            "favicon_url": "https://activities.exe.in.th/assets/ragnarok/daily-login/animated_favicon.gif",
            "page_transition": "LINK",
            "title": "Ragnarok Online",
            "url": "https://activities.exe.in.th/ragnarok/daily-login",
            "client_id": "dj4lRMcuNyMIxcarbh7RbQ\u003d\u003d",
            "time_usec": 1477930923137380
},
        {
            "favicon_url": "https://activities.exe.in.th/assets/ragnarok/daily-login/animated_favicon.gif",
            "page_transition": "LINK",
            "title": "Ragnarok Online",
            "url": "https://activities.exe.in.th/ragnarok/daily-login",
            "client_id": "dj4lRMcuNyMIxcarbh7RbQ\u003d\u003d",
            "time_usec": 1477930921608380
},
        {
            "favicon_url": "https://activities.exe.in.th/assets/ragnarok/daily-login/animated_favicon.gif",
            "page_transition": "LINK",
            "title": "Ragnarok Online",
            "url": "https://activities.exe.in.th/ragnarok/daily-login",
            "client_id": "dj4lRMcuNyMIxcarbh7RbQ\u003d\u003d",
            "time_usec": 1477930912946380
},
        {
            "favicon_url": "https://activities.exe.in.th/assets/ragnarok/daily-login/animated_favicon.gif",
            "page_transition": "LINK",
            "title": "Ragnarok Online",
            "url": "https://activities.exe.in.th/ragnarok/daily-login",
            "client_id": "dj4lRMcuNyMIxcarbh7RbQ\u003d\u003d",
            "time_usec": 1477930911223380
},
        {
            "favicon_url": "https://activities.exe.in.th/assets/ragnarok/daily-login/animated_favicon.gif",
            "page_transition": "LINK",
            "title": "Ragnarok Online",
            "url": "https://activities.exe.in.th/ragnarok/daily-login",
            "client_id": "dj4lRMcuNyMIxcarbh7RbQ\u003d\u003d",
            "time_usec": 1477930900052380
},
        {
            "favicon_url": "https://activities.exe.in.th/assets/ragnarok/daily-login/animated_favicon.gif",
            "page_transition": "LINK",
            "title": "Ragnarok Online",
            "url": "https://activities.exe.in.th/ragnarok/daily-login",
            "client_id": "dj4lRMcuNyMIxcarbh7RbQ\u003d\u003d",
            "time_usec": 1477930898190380
},
        {
            "favicon_url": "https://www.facebook.com/rsrc.php/yl/r/H3nktOa7ZMg.ico",
            "page_transition": "LINK",
            "title": "โพสต์ไปที่ Facebook",
            "url": "https://www.facebook.com/v2.7/dialog/share?app_id\u003d1074038852670937\u0026display\u003dpopup\u0026e2e\u003d%7B%7D\u0026href\u003dhttps%3A%2F%2Factivities.exe.in.th%2Fragnarok%2Fdaily-login\u0026locale\u003den_US\u0026mobile_iframe\u003dfalse\u0026next\u003dhttps%3A%2F%2Fstaticxx.facebook.com%2Fconnect%2Fxd_arbiter%2Fr%2FfTmIQU3LxvB.js%3Fversion%3D42%23cb%3Df2ddd44e29ee4ac%26domain%3Dactivities.exe.in.th%26origin%3Dhttps%253A%252F%252Factivities.exe.in.th%252Fff7356964e0e74%26relation%3Dopener%26frame%3Dffdd7bec37c968%26result%3D%2522xxRESULTTOKENxx%2522\u0026sdk\u003djoey\u0026version\u003dv2.7",
            "client_id": "dj4lRMcuNyMIxcarbh7RbQ\u003d\u003d",
            "time_usec": 1477930890882380
},
        {
